[
    { "id": 1, "name": "University of Lagos (UNILAG)", "lat": 6.5167, "lng": 3.3850 },
    { "id": 2, "name": "University of Ibadan (UI)", "lat": 7.3912, "lng": 3.9167 },
    { "id": 3, "name": "University of Port Harcourt", "lat": 4.8433, "lng": 7.0620 },
    { "id": 4, "name": "Covenant University", "lat": 6.6728, "lng": 3.1243 },
    { "id": 5, "name": "University of Nigeria, Nsukka (UNN)", "lat": 6.86, "lng": 7.3989 },
    { "id": 6, "name": "Obafemi Awolowo University (OAU)", "lat": 7.5208, "lng": 4.5303 },
    { "id": 7, "name": "Ahmadu Bello University (ABU)", "lat": 11.0667, "lng": 7.7 },
    { "id": 8, "name": "Federal University, Oye-Ekiti (FUOYE)", "lat": 7.7833, "lng": 5.2333 },
    { "id": 9, "name": "University of Benin (UNIBEN)", "lat": 6.3337, "lng": 5.6001 },
    { "id": 10, "name": "Olabisi Onabanjo University (OOU)", "lat": 6.8626, "lng": 3.6633 },
    { "id": 11, "name": "Lagos State University (LASU)", "lat": 6.5067, "lng": 3.2450 },
    { "id": 12, "name": "University of Ilorin (UNILORIN)", "lat": 8.5, "lng": 4.55 },
    { "id": 13, "name": "Federal University of Technology, Akure (FUTA)", "lat": 7.2578, "lng": 5.1958 },
    { "id": 14, "name": "Babcock University", "lat": 6.8686, "lng": 3.4754 },
    { "id": 15, "name": "University of Abuja", "lat": 9.0658, "lng": 7.4896 },
    { "id": 16, "name": "Federal University of Agriculture, Abeokuta (FUNAAB)", "lat": 7.2244, "lng": 3.4363 },
    { "id": 17, "name": "Afe Babalola University (ABUAD)", "lat": 7.67, "lng": 5.22 },
    { "id": 18, "name": "Ladoke Akintola University of Technology (LAUTECH)", "lat": 7.44, "lng": 4.13 },
    { "id": 19, "name": "Alex Ekwueme Federal University, Ndufu-Alike Ikwo (AE-FUNAI)", "lat": 5.626, "lng": 7.7048 },
    { "id": 20, "name": "Federal University of Technology, Minna (FUTMINNA)", "lat": 9.6198, "lng": 6.5561 },
    { "id": 21, "name": "Rivers State University (RSU)", "lat": 4.8472, "lng": 6.9746 },
    { "id": 22, "name": "Adamawa State University, Mubi", "lat": 10.2674, "lng": 13.2674 },
    { "id": 23, "name": "University of Jos", "lat": 9.8965, "lng": 8.8583 },
    { "id": 24, "name": "Ekiti State University, Ado-Ekiti (EKSU)", "lat": 7.6258, "lng": 5.2209 },
    { "id": 25, "name": "Godfrey Okoye University", "lat": 6.186, "lng": 7.0711 },
    { "id": 26, "name": "Adekunle Ajasin University, Akungba Akoko", "lat": 7.4769, "lng": 5.7354 },
    { "id": 27, "name": "Nile University of Nigeria", "lat": 9.0, "lng": 7.5 },
    { "id": 28, "name": "Thomas Adewumi University", "lat": 7.8, "lng": 4.95 },
    { "id": 29, "name": "Federal University, Lokoja", "lat": 7.8, "lng": 6.7333 },
    { "id": 30, "name": "Federal University, Lafia", "lat": 8.4911, "lng": 8.5164 },
    { "id": 31, "name": "Federal University, Lokoja", "lat": 7.8, "lng": 6.7333 },
    { "id": 32, "name": "Federal University, Lafia", "lat": 8.4911, "lng": 8.5164 },
    { "id": 33, "name": "Kwara State University (KWASU)", "lat": 8.4928, "lng": 4.5424 },
    { "id": 34, "name": "Landmark University", "lat": 7.2265, "lng": 5.1581 },
    { "id": 35, "name": "Federal University of Technology, Owerri (FUTO)", "lat": 5.4885, "lng": 7.0446 },
    { "id": 36, "name": "Edo State University, Uzairue", "lat": 6.6789, "lng": 6.2492 },
    { "id": 37, "name": "Delta State University, Abraka", "lat": 6.2708, "lng": 6.1156 },
    { "id": 38, "name": "Redeemer’s University", "lat": 7.5951, "lng": 4.2399 },
    { "id": 39, "name": "Pan-Atlantic University", "lat": 6.4542, "lng": 3.3916 },
    { "id": 40, "name": "Osun State University", "lat": 7.7648, "lng": 4.5414 },
    { "id": 41, "name": "University of Calabar (UNICAL)", "lat": 4.9524, "lng": 8.3408 },
    { "id": 42, "name": "University of Maiduguri (UNIMAID)", "lat": 11.847, "lng": 13.1606 },
    { "id": 43, "name": "Bayero University Kano (BUK)", "lat": 12.0, "lng": 8.5167 },
    { "id": 44, "name": "Usmanu Danfodiyo University, Sokoto (UDUS)", "lat": 13.06, "lng": 5.243 },
    { "id": 45, "name": "University of Port Harcourt (UNIPORT)", "lat": 4.8433, "lng": 7.062 },
    { "id": 46, "name": "University of Jos (UNIJOS)", "lat": 9.8965, "lng": 8.8583 },
    { "id": 47, "name": "University of Ilorin (UNILORIN)", "lat": 8.5, "lng": 4.55 },
    { "id": 48, "name": "Nigerian Defence Academy (NDA) – Kaduna", "lat": 10.4636, "lng": 7.4604 },
    { "id": 49, "name": "Michael Okpara University of Agriculture, Umudike (MOUAU)", "lat": 5.5244, "lng": 7.4292 },
    { "id": 50, "name": "Imo State University (IMSU)", "lat": 5.5, "lng": 7.0333 },
    { "id": 51, "name": "Abubakar Tafawa Balewa University (ATBU), Bauchi", "lat": 10.3317, "lng": 9.8442 },
    { "id": 52, "name": "Bingham University", "lat": 8.9833, "lng": 7.8178 },
    { "id": 53, "name": "Ibrahim Badamasi Babangida University (I.B.B.U), Lapai", "lat": 9.0833, "lng": 6.0333 },
    { "id": 54, "name": "Federal University Dutse (FUD), Jigawa", "lat": 11.7611, "lng": 10.3117 },
    { "id": 55, "name": "Federal University Dutsin-Ma (FUDMA), Katsina", "lat": 12.4094, "lng": 7.4681 },
    { "id": 56, "name": "Benue State University (BSU), Makurdi", "lat": 7.7333, "lng": 8.5333 },
    { "id": 57, "name": "University of Jos Teaching / Associated University", "lat": 9.9238, "lng": 8.8831 },
    { "id": 58, "name": "Gregory University (GUU), Uturu", "lat": 5.621, "lng": 7.353 },
    { "id": 59, "name": "Ambrose Alli University (AAU), Ekpoma", "lat": 6.7333, "lng": 6.1167 },
    { "id": 60, "name": "Anambra State University (UNIZIK Campus etc.)", "lat": 6.2019, "lng": 6.7896 },
    { "id": 61, "name": "Adekunle Ajasin University (AAUA), Akungba-Akoko", "lat": 7.4333, "lng": 5.7333 },
    { "id": 62, "name": "Ekiti State University (EKSU), Ado-Ekiti", "lat": 7.7167, "lng": 5.25 },
    { "id": 63, "name": "Kogi State University (KSU), Anyigba", "lat": 7.4833, "lng": 7.1833 },
    { "id": 64, "name": "Abia State University (ABSU), Uturu", "lat": 5.8228, "lng": 7.3942 },
    { "id": 65, "name": "Nasarawa State University (NSUK), Keffi", "lat": 8.847, "lng": 7.8736 },
    { "id": 66, "name": "Kebbi State University of Science and Technology (KSUSTA), Aliero", "lat": 12.2833, "lng": 4.4667 },
    { "id": 67, "name": "Osun State Polytechnic, Iree", "lat": 7.55, "lng": 4.4333 },
    { "id": 68, "name": "University of Africa, Toru-Orua", "lat": 5.05, "lng": 6.0833 },
    { "id": 69, "name": "Akwa Ibom State University (AKSU), Ikot Akpaden", "lat": 4.7355, "lng": 7.719 },
    { "id": 70, "name": "Bauchi State University, Gadau (BASUG)", "lat": 12.0833, "lng": 10.1667 },
    { "id": 71, "name": "Northwest University (Now YUMSUK), Kano", "lat": 12.0, "lng": 8.5167 },
    { "id": 72, "name": "Sokoto State University (SSU), Sokoto", "lat": 13.0667, "lng": 5.2333 },
    { "id": 73, "name": "Adamawa State University (ADSU), Mubi", "lat": 10.2674, "lng": 13.267 },
    { "id": 74, "name": "Gombe State University (GSU)", "lat": 10.2833, "lng": 11.1667 },
    { "id": 75, "name": "Kaduna State University (KASU)", "lat": 10.5167, "lng": 7.4333 },
    { "id": 76, "name": "Taraba State University (TSU), Jalingo", "lat": 8.9, "lng": 11.3667 },
    { "id": 77, "name": "Plateau State University (PLASU), Bokkos", "lat": 9.3, "lng": 8.9833 },
    { "id": 78, "name": "Umaru Musa Yar’adua University (UMYU), Katsina", "lat": 12.9908, "lng": 7.6018 },
    { "id": 79, "name": "Enugu State University of Science & Technology (ESUT)", "lat": 6.4584, "lng": 7.5103 },
    { "id": 80, "name": "Cross River University of Technology (CRUTECH), Calabar", "lat": 4.9608, "lng": 8.3269 },
    { "id": 81, "name": "Bells University of Technology, Ota", "lat": 6.7028, "lng": 3.1178 },
    { "id": 82, "name": "Bingham University, Karu", "lat": 8.9833, "lng": 7.8178 },
    { "id": 83, "name": "Bowen University, Iwo", "lat": 7.6333, "lng": 4.1833 },
    { "id": 84, "name": "Caleb University, Lagos", "lat": 6.595, "lng": 3.3433 },
    { "id": 85, "name": "Caritas University, Enugu", "lat": 6.43, "lng": 7.51 },
    { "id": 86, "name": "Covenant University, Ota", "lat": 6.6728, "lng": 3.1243 },
    { "id": 87, "name": "Crawford University, Igbesa", "lat": 6.7286, "lng": 3.4311 },
    { "id": 88, "name": "Delta State University, Abraka", "lat": 6.2708, "lng": 6.1156 },
    { "id": 89, "name": "Dominion University, Ibadan", "lat": 7.3775, "lng": 3.947 },
    { "id": 90, "name": "Eastern Palm University, Ogboko", "lat": 5.5, "lng": 6.0 },
    { "id": 91, "name": "Ebonyi State University, Abakaliki", "lat": 6.3247, "lng": 8.1122 },
    { "id": 92, "name": "Edo State University, Uzairue", "lat": 6.6789, "lng": 6.2492 },
    { "id": 93, "name": "Ekiti State University, Ado-Ekiti", "lat": 7.7167, "lng": 5.25 },
    { "id": 94, "name": "Elizade University, Ilara-Mokin", "lat": 7.2333, "lng": 5.5667 },
    { "id": 95, "name": "Evangel University, Akaeze", "lat": 6.991, "lng": 8.099 },
    { "id": 96, "name": "Federal University Dutse, Jigawa", "lat": 11.7611, "lng": 10.3117 },
    { "id": 97, "name": "Federal University Dutsin-Ma, Katsina", "lat": 12.4094, "lng": 7.4681 },
    { "id": 98, "name": "Federal University Gusau, Zamfara", "lat": 12.167, "lng": 6.6667 },
    { "id": 99, "name": "Federal University Kashere, Gombe", "lat": 10.2, "lng": 11.1667 },
    { "id": 100, "name": "Federal University Lafia, Nasarawa", "lat": 8.4911, "lng": 8.5164 },
    { "id": 101, "name": "Federal University Lokoja, Kogi", "lat": 7.8, "lng": 6.7333 },
    { "id": 102, "name": "Federal University Ndufu-Alike Ikwo, Ebonyi", "lat": 5.626, "lng": 7.7048 },
    { "id": 103, "name": "Federal University of Agriculture, Abeokuta", "lat": 7.2244, "lng": 3.4363 },
    { "id": 104, "name": "Federal University of Agriculture, Makurdi", "lat": 7.7333, "lng": 8.5333 },
    { "id": 105, "name": "Federal University of Petroleum Resources, Effurun", "lat": 5.52, "lng": 5.75 },
    { "id": 106, "name": "Federal University of Technology, Akure", "lat": 7.2578, "lng": 5.1958 },
    { "id": 107, "name": "Federal University of Technology, Minna", "lat": 9.6198, "lng": 6.5561 },
    { "id": 108, "name": "Federal University of Technology, Owerri", "lat": 5.4885, "lng": 7.0446 },
    { "id": 109, "name": "Federal University Otuoke, Bayelsa", "lat": 4.9456, "lng": 6.2725 },
    { "id": 110, "name": "Federal University Wukari, Taraba", "lat": 7.867, "lng": 9.7833 },
    { "id": 111, "name": "Fountain University, Osogbo", "lat": 7.7833, "lng": 4.55 },
    { "id": 112, "name": "Gombe State University, Gombe", "lat": 10.2833, "lng": 11.1667 },
    { "id": 113, "name": "Godfrey Okoye University, Enugu", "lat": 6.186, "lng": 7.0711 },
    { "id": 114, "name": "Gregory University, Uturu", "lat": 5.621, "lng": 7.353 },
    { "id": 115, "name": "Ibrahim Badamasi Babangida University, Lapai", "lat": 9.0833, "lng": 6.0333 },
    { "id": 116, "name": "Igbinedion University, Okada", "lat": 6.728, "lng": 5.931 },
    { "id": 117, "name": "Ignatius Ajuru University of Education, Port Harcourt", "lat": 4.853, "lng": 6.967 },
    { "id": 118, "name": "Imo State University, Owerri", "lat": 5.5, "lng": 7.0333 },
    { "id": 119, "name": "Joseph Ayo Babalola University, Ikeji-Arakeji", "lat": 7.8833, "lng": 4.7833 },
    { "id": 120, "name": "Kaduna State University, Kaduna", "lat": 10.5167, "lng": 7.4333 },
    { "id": 121, "name": "Kano University of Science and Technology, Wudil", "lat": 11.9333, "lng": 8.2667 },
    { "id": 122, "name": "Kebbi State University of Science and Technology, Aliero", "lat": 12.2833, "lng": 4.4667 },
    { "id": 123, "name": "Kings University, Ode-Omu", "lat": 7.55, "lng": 4.4167 },
    { "id": 124, "name": "Kogi State University, Anyigba", "lat": 7.4833, "lng": 7.1833 },
    { "id": 125, "name": "Kwara State University, Malete", "lat": 8.4928, "lng": 4.5424 },
    { "id": 126, "name": "Ladoke Akintola University of Technology, Ogbomoso", "lat": 7.44, "lng": 4.13 },
    { "id": 127, "name": "Lagos State University, Ojo", "lat": 6.5067, "lng": 3.245 },
    { "id": 128, "name": "Landmark University, Omu-Aran", "lat": 7.2265, "lng": 5.1581 },
    { "id": 129, "name": "Lead City University, Ibadan", "lat": 7.392, "lng": 3.909 },
    { "id": 130, "name": "Madonna University, Okija", "lat": 6.184, "lng": 6.901 },
    { "id": 131, "name": "Michael Okpara University of Agriculture, Umudike", "lat": 5.5244, "lng": 7.4292 },
    { "id": 132, "name": "Modibbo Adama University of Technology, Yola", "lat": 9.208, "lng": 12.451 },
    { "id": 133, "name": "Mountain Top University, Makogi", "lat": 7.2, "lng": 4.8 },
    { "id": 134, "name": "Nasarawa State University, Keffi", "lat": 8.847, "lng": 7.8736 },
    { "id": 135, "name": "National Open University of Nigeria, Abuja", "lat": 9.0833, "lng": 7.5333 },
    { "id": 136, "name": "Niger Delta University, Amassoma", "lat": 4.9775, "lng": 6.1017 },
    { "id": 137, "name": "Nigerian Defence Academy, Kaduna", "lat": 10.4636, "lng": 7.4604 },
    { "id": 138, "name": "Nile University of Nigeria, Abuja", "lat": 9.0, "lng": 7.5 },
    { "id": 139, "name": "Nnamdi Azikiwe University, Awka", "lat": 6.206, "lng": 7.073 },
    { "id": 140, "name": "Obafemi Awolowo University, Ile-Ife", "lat": 7.5208, "lng": 4.5303 },
    { "id": 141, "name": "Obong University, Obong Ntak", "lat": 5.07, "lng": 7.93 },
    { "id": 142, "name": "Olabisi Onabanjo University, Ago-Iwoye", "lat": 6.8626, "lng": 3.6633 },
    { "id": 143, "name": "Ondo State University of Science and Technology, Okitipupa", "lat": 6.6833, "lng": 4.9167 },
    { "id": 144, "name": "Osun State University, Osogbo", "lat": 7.7648, "lng": 4.5414 },
    { "id": 145, "name": "Pan-Atlantic University, Lagos", "lat": 6.4542, "lng": 3.3916 },
    { "id": 146, "name": "Paul University, Awka", "lat": 6.2019, "lng": 6.7896 },
    { "id": 147, "name": "Plateau State University, Bokkos", "lat": 9.3, "lng": 8.9833 },
    { "id": 148, "name": "Redeemer's University, Mowe", "lat": 7.5951, "lng": 4.2399 },
    { "id": 149, "name": "Renaissance University, Enugu", "lat": 6.42, "lng": 7.5 },
    { "id": 150, "name": "Rhema University, Aba", "lat": 5.1167, "lng": 7.3667 },
    { "id": 151, "name": "Ritman University, Ikot Ekpene", "lat": 5.145, "lng": 7.684 },
    { "id": 152, "name": "Rivers State University, Port Harcourt", "lat": 4.8472, "lng": 6.9746 },
    { "id": 153, "name": "Salem University, Lokoja", "lat": 7.8, "lng": 6.7333 },
    { "id": 154, "name": "Skyline University, Kano", "lat": 12.0, "lng": 8.5167 },
    { "id": 155, "name": "Sokoto State University, Sokoto", "lat": 13.0667, "lng": 5.2333 },
    { "id": 156, "name": "Southwestern University, Okun-Owa", "lat": 7.55, "lng": 4.4167 },
    { "id": 157, "name": "Spiritan University, Nneochi", "lat": 5.1, "lng": 7.55 },
    { "id": 158, "name": "Summit University, Offa", "lat": 8.15, "lng": 4.95 },
    { "id": 159, "name": "Tai Solarin University of Education, Ijebu-Ode", "lat": 6.836, "lng": 3.917 },
    { "id": 160, "name": "Taraba State University, Jalingo", "lat": 8.9, "lng": 11.3667 },
    { "id": 161, "name": "Tansian University, Umunya", "lat": 6.0, "lng": 7.2 },
    { "id": 162, "name": "Umaru Musa Yar’adua University, Katsina", "lat": 12.9908, "lng": 7.6018 },
    { "id": 163, "name": "University of Abuja, Abuja", "lat": 9.0658, "lng": 7.4896 },
    { "id": 164, "name": "University of Uyo, Uyo", "lat": 5.0449, "lng": 7.9227 },
    { "id": 165, "name": "Usmanu Danfodiyo University, Sokoto", "lat": 13.06, "lng": 5.243 }
]